{
    "trips":[
             {
             "trip": [
                      {
                      "routeTitle": "ROUTE -> LYNGE <-",
                      "description":"This route goes throug some interesting spots, where you will hear stories about king and queens, how the city was build and much more."
                      },
                      { "coordinates":[
                                       {
                                       "googlePoint": "WIDEX A/S",
                                       "annotationTitle": "WIDEX A/S",
                                       "latitude": 55.840839,
                                       "longitude": 12.314617
                                       },
                                       {
                                       "googlePoint": "Nymøllevej 4, lynge",
                                       "annotationTitle": "Nymøllevej 4, lynge ",
                                       "latitude": 55.845402,
                                       "longitude": 12.337784
                                       },
                                       {
                                       "googlePoint": "Skovmosen 13, lillerød",
                                       "annotationTitle": "Skovmosen 13, lillerød",
                                       "latitude": 55.845215,
                                       "longitude": 12.341699
                                       }

                                      
                                                                              ]
                      
                      }
                      ]
             },
                         {
             "trip": [
                      {
                      "routeTitle": "The little mermaide",
                      "description":"This route goes to the harbour area and Langeline, home of the little mermaide."
                      },
                      { "coordinates":[
                                       
                                                                          {
                                       "googlePoint": "Toldbogade 30, københavn",
                                       "annotationTitle": "Toldbogade 30",
                                       "latitude": 55.683428,
                                       "longitude": 12.595503
                                       },
                                       {
                                       "googlePoint": "Langelinie 5, københavn",
                                       "annotationTitle": "The little mermaide",
                                       "latitude": 55.692844,
                                       "longitude": 12.599097
                                       },
                                       {
                                       "googlePoint": "Folke bernadottes allé 27, københavn",
                                       "annotationTitle": "Folke bernadottes allé 27",
                                       "latitude": 55.69433988,
                                       "longitude": 12.59277355
                                       },
                                       {
                                       "googlePoint": "Krokodillegade 21, københavn",
                                       "annotationTitle": "!!! Krokodillegade 21 !!!",
                                       "latitude": 55.69012697,
                                       "longitude": 12.58679992
                                       },
                                       {
                                       "googlePoint": "Kronprinsessegade 17, københavn",
                                       "annotationTitle": "Kronprinsessegade 17",
                                       "latitude": 55.68489954,
                                       "longitude": 12.58261952
                                       },
                                       {
                                       "googlePoint": "Sankt Annæ Plads, 36, københavn",
                                       "annotationTitle": "Royal Danish PlayHouse",
                                       "latitude": 55.680252,
                                       "longitude": 12.594001
                                       }
                                       ]
                      
                      }
                      ]
             },
             {
             "trip": [
                      {
                      "routeTitle": "Christiansborg",
                      "description":"This route goes to the goverment buildings and reveals the story of this country"
                      },
                      { "coordinates":[
                                       {
                                       "googlePoint": "Prins jørgens gård 7, christiansborg",
                                       "annotationTitle": "Prins jørgens gård 7, christiansborg",
                                       "latitude": 55.6771693,
                                       "longitude": 12.5795804
                                       },
                                       {
                                       "googlePoint": "Store kongensgade 1, København",
                                       "annotationTitle": "Store Kongensgade 1",
                                       "latitude": 55.681444,
                                       "longitude": 12.585311
                                       },
                                       {
                                       "googlePoint": "Kongens Nytorv 28, København",
                                       "annotationTitle": "Kongens Nytorv 28",
                                       "latitude": 55.680960,
                                       "longitude": 12.584903
                                       },
                                       {
                                       "googlePoint": "Herluf Trolles Gade 5, København",
                                       "annotationTitle": "Herbergsgade",
                                       "latitude": 55.679302,
                                       "longitude": 12.588122
                                       },
                                       {
                                       "googlePoint": "Havnegade 55, København",
                                       "annotationTitle": "Havnegade",
                                       "latitude": 55.678927,
                                       "longitude": 12.592843
                                       },
                                       {
                                       "googlePoint": "Børsbroen, København",
                                       "annotationTitle": "Børsbroen",
                                       "latitude": 55.675794,
                                       "longitude": 12.584667
                                       },
                                       {
                                       "googlePoint": "Christiansborg slotsplads, København",
                                       "annotationTitle": "Christiansborg",
                                       "latitude": 55.6766824,
                                       "longitude": 12.5815467
                                       }
                                       ]
                      
                      }
                      ]  
             }
             ]
    
}