{
    "trips":[
             {
             "trip": [
                      {
                      "routeTitle": "ROUTE -> LYNGE <-",
                      "description":"This route goes throug some interesting spots, where you will hear stories about king and queens, how the city was build and much more."
                      },
                      { "coordinates":[
                                       {
                                       "googlePoint": "WIDEX A/S",
                                       "annotationTitle": "WIDEX A/S",
                                       "latitude": 55.840839,
                                       "longitude": 12.314617
                                       },
                                       {
                                       "googlePoint": "vassingerød hillerødmotorvejen",
                                       "annotationTitle": "vassingerød hillerødmotorvejen",
                                       "latitude": 55.840215,
                                       "longitude": 12.347526
                                       },
                                                                              {
                                       "googlePoint": "hillerødmotorvejen 4",
                                       "annotationTitle": "hillerødmotorvejen near farum",
                                       "latitude": 55.787388,
                                       "longitude": 12.389357
                                       },
                                       {
                                       "googlePoint": "mørkhøjvej 219",
                                       "annotationTitle": "mørkhøjvej 219",
                                       "latitude": 55.725817,
                                       "longitude": 12.472191
                                       },
                                       {
                                       "googlePoint": "islevhusvej 75",
                                       "annotationTitle": "islevhusvej 75",
                                       "latitude": 55.707861,
                                       "longitude": 12.459622
                                       },
                                       {
                                       "googlePoint": "brovænget 25, brønshøj",
                                       "annotationTitle": "brovænget 25, brønshøj",
                                       "latitude": 55.706031,
                                       "longitude": 12.459319
                                       }

                                      
                                       ]
                      
                      }
                      ]
             },

             {
             "trip": [
                      {
                      "routeTitle": "The Dog Walk",
                      "description":"This route goes to the harbour area and Langeline, home of the little mermaide."
                      },
                      { "coordinates":[
                                       
                                       {
                                       "googlePoint": "brovænget 25, brønshøj",
                                       "annotationTitle": "brovænget 25, brønshøj",
                                       "latitude": 55.683428,
                                       "longitude": 12.595503
                                       },
                                       {
                                       "googlePoint": "kildeløbet 80, brønshøj",
                                       "annotationTitle": "kildeløbet 80, brønshøj",
                                       "latitude": 55.706276,
                                       "longitude": 12.455985
                                       },
                                       {
                                       "googlePoint": "kildeløbet 26, brønshøj",
                                       "annotationTitle": "kildeløbet 26, brønshøj",
                                       "latitude": 55.704459,
                                       "longitude": 12.457176
                                       },
                                       {
                                       "googlePoint": "bakkekammen 24, brønshøj",
                                       "annotationTitle": "bakkekammen 24, brønshøj",
                                       "latitude": 55.706285,
                                       "longitude": 12.459819
                                       },
                                       
                                       {
                                       "googlePoint": "brovænget 25, brønshøj",
                                       "annotationTitle": "brovænget 25, brønshøj",
                                       "latitude": 55.683428,
                                       "longitude": 12.595503
                                       }

                                       
                                       
                                       ]
                      
                      }
                      ]
             },
             {
             "trip": [
                      {
                      "routeTitle": "The little mermaide",
                      "description":"This route goes to the harbour area and Langeline, home of the little mermaide."
                      },
                      { "coordinates":[
                                       
                                       {
                                       "googlePoint": "Toldbogade 30, københavn",
                                       "annotationTitle": "Toldbogade 30",
                                       "latitude": 55.683428,
                                       "longitude": 12.595503
                                       },
                                       {
                                       "googlePoint": "Langelinie 5, københavn",
                                       "annotationTitle": "The little mermaide",
                                       "latitude": 55.692844,
                                       "longitude": 12.599097
                                       },
                                       {
                                       "googlePoint": "Folke bernadottes allé 27, københavn",
                                       "annotationTitle": "Folke bernadottes allé 27",
                                       "latitude": 55.69433988,
                                       "longitude": 12.59277355
                                       },
                                       {
                                       "googlePoint": "Krokodillegade 21, københavn",
                                       "annotationTitle": "!!! Krokodillegade 21 !!!",
                                       "latitude": 55.69012697,
                                       "longitude": 12.58679992
                                       },
                                       {
                                       "googlePoint": "Kronprinsessegade 17, københavn",
                                       "annotationTitle": "Kronprinsessegade 17",
                                       "latitude": 55.68489954,
                                       "longitude": 12.58261952
                                       },
                                       {
                                       "googlePoint": "Sankt Annæ Plads, 36, københavn",
                                       "annotationTitle": "Royal Danish PlayHouse",
                                       "latitude": 55.680252,
                                       "longitude": 12.594001
                                       }
                                       ]
                      
                      }
                      ]
             },

                          {
             "trip": [
                      {
                      "routeTitle": "Christiansborg",
                      "description":"This route goes to the goverment buildings and reveals the story of this country"
                      },
                      { "coordinates":[
                                       {
                                       "googlePoint": "Prins jørgens gård 7, christiansborg",
                                       "annotationTitle": "Prins jørgens gård 7, christiansborg",
                                       "latitude": 55.6771693,
                                       "longitude": 12.5795804
                                       },
                                       {
                                       "googlePoint": "Store kongensgade 1, København",
                                       "annotationTitle": "Store Kongensgade 1",
                                       "latitude": 55.681444,
                                       "longitude": 12.585311
                                       },
                                       {
                                       "googlePoint": "Kongens Nytorv 28, København",
                                       "annotationTitle": "Kongens Nytorv 28",
                                       "latitude": 55.680960,
                                       "longitude": 12.584903
                                       },
                                       {
                                       "googlePoint": "Herluf Trolles Gade 5, København",
                                       "annotationTitle": "Herbergsgade",
                                       "latitude": 55.679302,
                                       "longitude": 12.588122
                                       },
                                       {
                                       "googlePoint": "Havnegade 55, København",
                                       "annotationTitle": "Havnegade",
                                       "latitude": 55.678927,
                                       "longitude": 12.592843
                                       },
                                       {
                                       "googlePoint": "Børsbroen, København",
                                       "annotationTitle": "Børsbroen",
                                       "latitude": 55.675794,
                                       "longitude": 12.584667
                                       },
                                       {
                                       "googlePoint": "Christiansborg slotsplads, København",
                                       "annotationTitle": "Christiansborg",
                                       "latitude": 55.6766824,
                                       "longitude": 12.5815467
                                       }
                                       ]
                      
                      }
                      ]  
             }
             ]
    
}